City_ID,City,Country,Date,Lat,Lng,Max Temp,Humidity,Cloudiness,Wind Speed
0,Carnarvon,AU,2022-03-01 19:43:04,-24.8667,113.6333,73.47,64,40,21.85
1,Talaja,IN,2022-03-01 19:43:04,21.35,72.05,77.36,31,0,10.83
2,Bengkulu,ID,2022-03-01 19:43:05,-3.8004,102.2655,76.03,85,100,4.25
3,Mataura,NZ,2022-03-01 19:39:52,-46.1927,168.8643,46.47,87,15,2.24
4,Luderitz,NA,2022-03-01 19:43:05,-26.6481,15.1594,67.32,74,0,14.52
5,Bredasdorp,ZA,2022-03-01 19:43:06,-34.5322,20.0403,69.28,73,65,1.14
6,Kapaa,US,2022-03-01 19:43:06,22.0752,-159.319,76.48,75,20,10.36
7,Nikolskoye,RU,2022-03-01 19:43:07,59.7035,30.7861,33.69,89,11,6.15
8,Bluff,NZ,2022-03-01 19:43:07,-46.6,168.3333,46.8,70,4,10.4
9,Qaanaaq,GL,2022-03-01 19:43:08,77.484,-69.3632,6.22,58,7,12.95
10,Katsuura,JP,2022-03-01 19:43:08,35.1333,140.3,50.14,72,32,10.49
11,Hirara,JP,2022-03-01 19:43:08,24.8,125.2833,70.93,75,100,7.63
12,Yellowknife,CA,2022-03-01 19:39:19,62.456,-114.3525,-4.59,68,0,6.91
13,Kenai,US,2022-03-01 19:41:16,60.5544,-151.2583,30.15,88,100,0.0
14,Punta Arenas,CL,2022-03-01 19:43:09,-53.15,-70.9167,48.31,81,75,31.07
15,Tiksi,RU,2022-03-01 19:43:10,71.6872,128.8694,-21.93,100,98,3.67
16,Georgetown,MY,2022-03-01 19:39:52,5.4112,100.3354,80.53,88,20,2.3
17,Valparaiso,CL,2022-03-01 19:42:42,-33.0393,-71.6273,84.43,36,0,16.11
18,Torbay,CA,2022-03-01 19:43:10,47.6666,-52.7314,21.88,54,20,20.71
19,Hithadhoo,MV,2022-03-01 19:43:11,-0.6,73.0833,84.74,63,21,15.52
20,Axim,GH,2022-03-01 19:43:11,4.8699,-2.2405,80.38,85,83,10.6
21,Usinsk,RU,2022-03-01 19:43:11,65.9939,57.5281,3.18,100,86,5.75
22,Atuona,PF,2022-03-01 19:43:12,-9.8,-139.0333,78.58,72,2,20.49
23,Rikitea,PF,2022-03-01 19:39:39,-23.1203,-134.9692,78.26,74,97,7.11
24,Jamestown,US,2022-03-01 19:38:13,42.097,-79.2353,49.32,39,20,18.41
25,Dongsheng,CN,2022-03-01 19:43:13,39.8161,109.9776,22.8,40,0,9.44
26,Marawi,PH,2022-03-01 19:43:13,7.9986,124.2928,66.65,93,93,1.43
27,Kautokeino,NO,2022-03-01 19:43:14,69.0125,23.0412,28.18,78,100,14.47
28,Olafsvik,IS,2022-03-01 19:43:14,64.8945,-23.7142,31.96,73,100,16.64
29,Turka,UA,2022-03-01 19:43:14,49.1541,23.0297,30.25,91,78,3.11
30,Mar Del Plata,AR,2022-03-01 19:41:47,-38.0023,-57.5575,79.88,47,0,26.46
31,Albany,US,2022-03-01 19:38:36,42.6001,-73.9662,39.09,58,100,1.99
32,Avarua,CK,2022-03-01 19:43:15,-21.2078,-159.775,78.85,94,75,5.75
33,Suez,EG,2022-03-01 19:43:16,29.9737,32.5263,65.68,43,97,6.98
34,Saint-Joseph,RE,2022-03-01 19:43:16,-21.3667,55.6167,75.58,85,60,7.29
35,Butaritari,KI,2022-03-01 19:43:17,3.0707,172.7902,80.24,81,43,8.66
36,New Norfolk,AU,2022-03-01 19:43:17,-42.7826,147.0587,60.3,83,95,2.3
37,Khilok,RU,2022-03-01 19:43:17,51.3674,110.4676,-1.01,98,88,3.56
38,Noyabrsk,RU,2022-03-01 19:43:18,63.1994,75.4507,2.28,91,100,25.3
39,Verkhnevilyuysk,RU,2022-03-01 19:43:18,63.4453,120.3167,-20.33,100,100,2.24
40,Nara,JP,2022-03-01 19:43:18,34.6851,135.8049,45.68,92,98,2.71
41,Malanje,AO,2022-03-01 19:43:19,-9.5402,16.341,65.19,96,100,4.92
42,Puerto Ayora,EC,2022-03-01 19:43:19,-0.7393,-90.3518,84.16,85,82,5.01
43,Te Anau,NZ,2022-03-01 19:43:20,-45.4167,167.7167,46.74,86,20,1.83
44,Sitka,US,2022-03-01 19:43:20,57.0531,-135.33,40.89,87,75,0.0
45,Eyl,SO,2022-03-01 19:44:20,7.9803,49.8164,76.87,77,12,17.11
46,Vila Velha,BR,2022-03-01 19:44:21,-20.3297,-40.2925,85.95,77,0,16.11
47,Dicabisagan,PH,2022-03-01 19:44:21,17.0818,122.4157,70.61,87,91,1.86
48,Port Blair,IN,2022-03-01 19:44:22,11.6667,92.75,77.04,94,40,0.0
49,Watertown,US,2022-03-01 19:44:22,42.3709,-71.1828,39.42,55,100,14.97
50,Tisul,RU,2022-03-01 19:44:22,55.7611,88.3122,18.66,80,100,20.69
51,Korba,IN,2022-03-01 19:44:23,22.35,82.6833,67.1,46,26,5.88
52,Nichlaul,IN,2022-03-01 19:44:23,27.3167,83.7333,59.36,57,0,2.66
53,Raudeberg,NO,2022-03-01 19:44:24,61.9875,5.1352,42.19,85,100,23.87
54,Upernavik,GL,2022-03-01 19:44:24,72.7868,-56.1549,-7.67,83,100,4.09
55,Hamilton,US,2022-03-01 19:44:25,39.1834,-84.5333,65.75,32,0,16.11
56,Mill Valley,US,2022-03-01 19:42:35,37.906,-122.545,73.78,68,94,2.19
57,Tasiilaq,GL,2022-03-01 19:44:25,65.6145,-37.6368,26.76,75,100,14.43
58,Kawalu,ID,2022-03-01 19:44:25,-7.3817,108.2082,71.47,92,88,2.26
59,Soyo,AO,2022-03-01 19:44:26,-6.1349,12.3689,76.46,89,100,12.59
60,Linxia,CN,2022-03-01 19:44:26,35.6003,103.2064,28.87,58,3,2.51
61,Ancud,CL,2022-03-01 19:44:27,-41.8697,-73.8203,67.42,80,83,12.46
62,Cherskiy,RU,2022-03-01 19:44:27,68.75,161.3,-19.03,100,94,6.8
63,Kostomuksha,RU,2022-03-01 19:44:27,64.571,30.5767,32.54,91,100,14.67
64,Barrow,US,2022-03-01 19:44:28,71.2906,-156.7887,12.22,85,100,9.22
65,Hilo,US,2022-03-01 19:40:40,19.7297,-155.09,80.26,59,0,8.01
66,Tessalit,ML,2022-03-01 19:44:29,20.1986,1.0114,85.73,9,96,5.28
67,Los Llanos De Aridane,ES,2022-03-01 19:44:29,28.6585,-17.9182,62.35,83,20,20.71
68,Bundaberg,AU,2022-03-01 19:44:10,-24.85,152.35,75.49,96,100,3.44
69,Castro,BR,2022-03-01 19:44:30,-24.7911,-50.0119,68.61,94,100,5.79
70,Beloha,MG,2022-03-01 19:44:30,-25.1667,45.05,72.21,93,47,6.51
71,Iqaluit,CA,2022-03-01 19:43:39,63.7506,-68.5145,-13.27,69,75,19.57
72,Saint-Philippe,RE,2022-03-01 19:44:31,-21.3585,55.7679,76.59,86,58,9.64
73,Lorengau,PG,2022-03-01 19:44:31,-2.0226,147.2712,79.45,81,100,4.92
74,Luganville,VU,2022-03-01 19:44:32,-15.5333,167.1667,76.3,92,100,10.98
75,Palu,ID,2022-03-01 19:44:32,-0.8917,119.8707,74.86,95,50,2.82
76,Carbondale,US,2022-03-01 19:43:47,37.7273,-89.2168,73.54,33,0,11.5
77,Vardo,NO,2022-03-01 19:44:33,70.3705,31.1107,33.55,100,100,19.57
78,Mnogovershinnyy,RU,2022-03-01 19:44:33,53.9353,139.9242,-8.12,98,99,2.82
79,Ushuaia,AR,2022-03-01 19:39:42,-54.8,-68.3,46.06,81,20,4.61
80,Las Colinas,PA,2022-03-01 19:44:34,8.55,-80.0833,80.74,27,41,17.85
81,Joaquim Gomes,BR,2022-03-01 19:44:34,-9.1373,-35.7519,84.45,60,100,10.63
82,Talnakh,RU,2022-03-01 19:44:34,69.4865,88.3972,1.2,97,100,5.06
83,Sibu,MY,2022-03-01 19:44:35,2.3,111.8167,77.31,100,40,0.0
84,Guerrero Negro,MX,2022-03-01 19:44:35,27.9769,-114.0611,73.15,34,58,8.75
85,Thompson,CA,2022-03-01 19:40:13,55.7435,-97.8558,1.56,55,40,9.22
86,Miri,MY,2022-03-01 19:44:36,4.4148,114.0089,75.34,100,40,3.44
87,Labuan,MY,2022-03-01 19:44:36,5.2767,115.2417,77.36,94,20,2.3
88,Greenwood,US,2022-03-01 19:44:37,34.1668,-82.1165,68.07,34,0,8.05
89,Merrill,US,2022-03-01 19:42:48,45.1805,-89.6835,36.59,65,100,10.36
90,Hasaki,JP,2022-03-01 19:45:37,35.7333,140.8333,46.8,65,96,21.09
91,Hermanus,ZA,2022-03-01 19:45:38,-34.4187,19.2345,69.8,82,5,4.54
92,Kalianget,ID,2022-03-01 19:45:38,-7.05,113.9333,79.43,86,100,12.33
93,Belen,TR,2022-03-01 19:45:38,36.4891,36.2233,48.34,100,75,5.75
94,Bandarbeyla,SO,2022-03-01 19:45:39,9.4942,50.8122,76.95,75,24,15.64
95,Ormara,PK,2022-03-01 19:45:39,25.2088,64.6357,72.79,75,2,10.04
96,Flin Flon,CA,2022-03-01 19:45:08,54.7682,-101.865,10.24,44,75,8.05
97,Bubaque,GW,2022-03-01 19:45:40,11.2833,-15.8333,75.79,71,0,21.32
98,The Valley,AI,2022-03-01 19:41:03,18.217,-63.0578,81.82,69,20,17.27
99,East London,ZA,2022-03-01 19:41:05,-33.0153,27.9116,76.05,85,82,16.17
100,Santa Rita,BR,2022-03-01 19:45:40,-7.1139,-34.9781,86.67,54,0,13.8
101,Dikson,RU,2022-03-01 19:41:05,73.5069,80.5464,-12.98,99,100,8.63
102,Chokurdakh,RU,2022-03-01 19:45:41,70.6333,147.9167,-7.04,98,100,7.29
103,Sabang,ID,2022-03-01 19:45:41,5.8933,95.3214,80.96,75,100,4.52
104,Busselton,AU,2022-03-01 19:45:42,-33.65,115.3333,59.04,81,89,12.5
105,Hobart,AU,2022-03-01 19:45:42,-42.8794,147.3294,60.66,91,75,4.61
106,Vaini,TO,2022-03-01 19:45:43,-21.2,-175.2,78.96,94,75,9.22
107,Mehamn,NO,2022-03-01 19:45:43,71.0357,27.8492,37.58,93,75,14.97
108,Brazzaville,CG,2022-03-01 19:45:43,-4.2658,15.2832,73.76,88,100,2.3
109,Tuktoyaktuk,CA,2022-03-01 19:45:44,69.4541,-133.0374,-11.2,70,0,18.41
110,Caravelas,BR,2022-03-01 19:45:44,-17.7125,-39.2481,81.3,69,53,7.45
111,La Ronge,CA,2022-03-01 19:45:45,55.1001,-105.2842,8.85,52,75,2.3
112,Luziania,BR,2022-03-01 19:45:45,-16.2525,-47.9503,87.49,62,85,4.59
113,Padang,ID,2022-03-01 19:45:45,-0.9492,100.3543,76.96,86,100,2.93
114,Qaqortoq,GL,2022-03-01 19:45:46,60.7167,-46.0333,27.1,47,100,13.56
115,Chervone,UA,2022-03-01 19:45:46,49.9564,28.8645,30.96,96,100,7.94
116,Udachnyy,RU,2022-03-01 19:45:47,66.4167,112.4,-27.08,100,88,4.7
117,Antigonish,CA,2022-03-01 19:45:09,45.6169,-61.9986,24.15,48,91,5.77
118,Lebu,CL,2022-03-01 19:43:27,-37.6167,-73.65,64.4,73,12,10.92
119,Sibiti,CG,2022-03-01 19:45:47,-3.6819,13.3499,68.22,99,100,0.58
120,Dunedin,NZ,2022-03-01 19:43:08,-45.8742,170.5036,53.8,66,45,3.0
121,Mount Gambier,AU,2022-03-01 19:45:48,-37.8333,140.7667,60.71,94,100,4.61
122,Erenhot,CN,2022-03-01 19:45:48,43.6475,111.9767,18.75,63,2,10.89
123,Vao,NC,2022-03-01 19:45:49,-22.6667,167.4833,79.41,88,100,20.33
124,Isangel,VU,2022-03-01 19:45:49,-19.55,169.2667,80.71,89,100,16.11
125,Tawau,MY,2022-03-01 19:45:50,4.2498,117.8871,77.13,88,99,1.01
126,Akdepe,TM,2022-03-01 19:45:50,42.0551,59.3788,42.89,69,98,4.56
127,Mahebourg,MU,2022-03-01 19:45:51,-20.4081,57.7,81.25,83,75,11.5
128,Negara,ID,2022-03-01 19:45:51,-8.3151,114.6025,75.9,90,100,3.91
129,Severo-Kurilsk,RU,2022-03-01 19:45:52,50.6789,156.125,18.75,59,95,9.22
130,Kondoa,TZ,2022-03-01 19:45:52,-4.9,35.7833,63.63,80,100,3.27
131,Vallenar,CL,2022-03-01 19:45:52,-28.5708,-70.7581,82.71,36,0,9.8
132,Sibolga,ID,2022-03-01 19:45:53,1.7427,98.7792,76.28,85,100,2.37
133,Sao Joao Da Barra,BR,2022-03-01 19:45:53,-21.6403,-41.0511,87.89,82,0,14.99
134,Kristiinankaupunki,FI,2022-03-01 19:45:54,62.2743,21.376,29.89,97,56,7.99
135,Ahipara,NZ,2022-03-01 19:46:54,-35.1667,173.1667,65.37,72,100,4.61
136,Domoni,KM,2022-03-01 19:46:54,-12.2569,44.5319,80.33,87,100,6.64
137,Stornoway,GB,2022-03-01 19:46:55,58.2093,-6.3865,40.93,90,20,6.91
138,Korla,CN,2022-03-01 19:46:55,41.7597,86.1469,36.16,44,100,1.45
139,Ishigaki,JP,2022-03-01 19:46:56,24.3448,124.1572,71.83,75,84,8.59
140,Itarema,BR,2022-03-01 19:46:56,-2.9248,-39.9167,82.96,70,99,15.17
141,Alofi,NU,2022-03-01 19:42:26,-19.0595,-169.9187,80.49,89,93,4.61
142,Sabla,NG,2022-03-01 19:46:57,12.7525,4.7077,84.81,8,5,8.01
143,Verkhnetulomskiy,RU,2022-03-01 19:46:57,68.6073,31.7962,30.33,96,100,14.36
144,Cockburn Town,TC,2022-03-01 19:46:58,21.4612,-71.1419,80.56,69,40,8.05
145,Fairbanks,US,2022-03-01 19:45:03,64.8378,-147.7164,20.3,85,100,0.0
146,Susangerd,IR,2022-03-01 19:46:58,31.5608,48.1831,57.22,26,57,6.17
147,Amursk,RU,2022-03-01 19:46:59,50.2261,136.8994,-14.08,98,99,1.63
148,Clyde River,CA,2022-03-01 19:46:59,70.4692,-68.5914,-0.17,71,0,16.11
149,Kodiak,US,2022-03-01 19:43:43,57.79,-152.4072,33.31,80,100,4.61
150,Makakilo City,US,2022-03-01 19:47:00,21.3469,-158.0858,77.29,71,40,6.91
151,Biak,ID,2022-03-01 19:47:00,-0.9131,122.8766,76.01,84,34,2.48
152,Coquimbo,CL,2022-03-01 19:47:01,-29.9533,-71.3436,67.73,68,20,16.11
153,La Seyne-Sur-Mer,FR,2022-03-01 19:47:01,43.0982,5.8847,48.16,69,66,5.91
154,Tura,IN,2022-03-01 19:47:01,25.5198,90.2201,61.47,43,0,2.77
155,Devils Lake,US,2022-03-01 19:43:32,48.1128,-98.8651,17.94,76,100,3.44
156,San Patricio,US,2022-03-01 19:47:02,28.017,-97.5169,71.69,36,1,8.16
157,Kankaanpaa,FI,2022-03-01 19:47:02,61.8,22.4167,32.76,98,100,7.4
158,Natal,BR,2022-03-01 19:47:03,-5.795,-35.2094,88.45,58,20,18.41
159,Aasiaat,GL,2022-03-01 19:47:03,68.7098,-52.8699,7.68,82,98,10.87
160,Hami,CN,2022-03-01 19:47:04,42.8,93.45,32.4,30,5,3.27
161,Khatanga,RU,2022-03-01 19:47:04,71.9667,102.5,-1.46,97,77,13.2
162,Saldanha,ZA,2022-03-01 19:47:05,-33.0117,17.9442,66.25,90,0,10.22
163,Klaksvik,FO,2022-03-01 19:47:05,62.2266,-6.589,41.92,81,50,24.14
164,Rodrigues Alves,BR,2022-03-01 19:47:05,-7.738,-72.6509,77.2,85,100,3.78
165,Sao Filipe,CV,2022-03-01 19:47:06,14.8961,-24.4956,71.1,64,2,18.61
166,San Rafael,AR,2022-03-01 19:47:06,-34.6177,-68.3301,88.57,19,0,6.82
167,Ostrovnoy,RU,2022-03-01 19:47:06,68.0531,39.5131,29.57,91,100,19.6
168,Madhogarh,IN,2022-03-01 19:47:07,26.276,79.1869,61.29,33,0,4.79
169,Bambous Virieux,MU,2022-03-01 19:47:07,-20.3428,57.7575,81.21,83,75,11.5
170,Pisco,PE,2022-03-01 19:47:08,-13.7,-76.2167,77.02,73,0,8.05
171,Nemuro,JP,2022-03-01 19:47:08,43.3236,145.575,24.26,73,69,5.14
172,Jalu,LY,2022-03-01 19:47:08,29.0331,21.5482,70.32,17,100,7.18
173,Svetlogorsk,BY,2022-03-01 19:47:09,52.6333,29.7333,29.82,90,88,6.8
174,Bethel,US,2022-03-01 19:43:40,41.3712,-73.414,44.04,60,75,14.97
175,Coronado,US,2022-03-01 19:47:09,32.6859,-117.1831,88.7,19,20,5.75
176,Kasungu,MW,2022-03-01 19:47:10,-13.0333,33.4833,66.88,97,100,4.36
177,Camana,PE,2022-03-01 19:47:10,-16.6228,-72.7111,74.08,78,100,6.64
178,Abalak,RU,2022-03-01 19:47:11,58.1286,68.5944,17.19,89,98,9.93
179,Sorland,NO,2022-03-01 19:47:11,67.667,12.6934,39.27,87,100,36.57
180,College,US,2022-03-01 19:47:11,64.8569,-147.8028,20.28,85,100,0.0
181,Rudbar,AF,2022-03-01 19:47:12,30.15,62.6,62.82,52,71,7.63
182,Port Alfred,ZA,2022-03-01 19:48:12,-33.5906,26.891,75.36,90,67,17.47
183,Chuy,UY,2022-03-01 19:48:13,-33.6971,-53.4616,73.06,43,0,6.46
184,Kurchum,KZ,2022-03-01 19:48:13,48.5722,83.6542,0.88,88,14,3.24
185,Farafangana,MG,2022-03-01 19:48:13,-22.8167,47.8333,76.14,93,100,7.11
186,Acapulco,MX,2022-03-01 19:45:43,16.8634,-99.8901,84.02,65,0,11.5
187,Arraial Do Cabo,BR,2022-03-01 19:48:14,-22.9661,-42.0278,89.56,55,0,18.41
188,Kuryk,KZ,2022-03-01 19:48:14,43.2,51.65,49.24,64,100,10.38
189,Seryshevo,RU,2022-03-01 19:48:15,51.0933,128.3786,1.26,98,100,2.17
190,Zhigansk,RU,2022-03-01 19:48:15,66.7697,123.3711,-27.54,100,100,2.04
191,Port Augusta,AU,2022-03-01 19:48:16,-32.5,137.7667,68.14,84,0,6.33
192,Ribeira Grande,PT,2022-03-01 19:44:52,38.5167,-28.7,63.0,82,75,21.85
193,Kiomboi,TZ,2022-03-01 19:48:16,-4.2667,34.3667,63.52,78,100,4.99
194,Namibe,AO,2022-03-01 19:48:17,-15.1961,12.1522,73.63,82,42,3.02
195,Nsanje,MW,2022-03-01 19:48:17,-16.92,35.262,71.31,95,27,2.66
196,Kruisfontein,ZA,2022-03-01 19:46:13,-34.0033,24.7314,67.89,94,57,4.38
197,Mount Isa,AU,2022-03-01 19:48:18,-20.7333,139.5,80.37,29,27,5.75
198,Stromness,GB,2022-03-01 19:45:44,58.965,-3.296,42.76,86,76,16.37
199,Anamur,TR,2022-03-01 19:48:18,36.0751,32.8369,53.62,92,100,10.6
200,Half Moon Bay,US,2022-03-01 19:48:19,37.4636,-122.4286,75.15,63,97,3.0
201,Pljevlja,ME,2022-03-01 19:48:19,43.3333,19.3333,21.56,98,100,2.17
202,Saint George,US,2022-03-01 19:47:48,37.1041,-113.5841,72.07,22,0,1.01
203,Comodoro Rivadavia,AR,2022-03-01 19:47:41,-45.8667,-67.5,82.26,17,20,29.93
204,Corrente,BR,2022-03-01 19:48:20,-3.7367,-43.3394,80.62,76,86,2.68
205,Chandur Bazar,IN,2022-03-01 19:48:20,21.2417,77.7456,76.28,26,0,8.59
206,Sanlucar La Mayor,ES,2022-03-01 19:48:21,37.3871,-6.2011,63.48,51,0,2.3
207,Longyearbyen,SJ,2022-03-01 19:48:21,78.2186,15.6401,10.24,61,0,23.02
208,Riyadh,SA,2022-03-01 19:47:03,24.6877,46.7219,66.34,28,0,9.08
209,Calvinia,ZA,2022-03-01 19:48:22,-31.4707,19.776,63.48,63,0,9.08
210,Faya,SA,2022-03-01 19:48:22,18.3851,42.4509,60.91,48,51,4.97
211,Dwarka,IN,2022-03-01 19:48:23,22.2394,68.9678,73.92,68,0,11.27
212,Manuk Mangkaw,PH,2022-03-01 19:48:23,4.8,119.85,80.28,81,98,7.74
213,Asau,RO,2022-03-01 19:48:23,46.4333,26.4,31.95,79,100,5.97
214,Broken Hill,AU,2022-03-01 19:48:24,-31.95,141.4333,64.11,88,0,4.61
215,Poya,NC,2022-03-01 19:48:24,-21.35,165.15,79.16,88,100,11.95
216,Zarubino,RU,2022-03-01 19:48:24,42.63,131.0922,29.19,55,0,9.28
217,Gigmoto,PH,2022-03-01 19:48:25,13.7796,124.39,77.63,89,100,8.48
218,Jiayuguan,CN,2022-03-01 19:48:25,39.8167,98.3,29.12,43,0,4.0
219,Rundu,NA,2022-03-01 19:48:26,-17.9333,19.7667,73.08,62,34,4.23
220,Butimanu,RO,2022-03-01 19:48:26,44.6833,25.9,34.14,98,100,5.97
221,Deolali,IN,2022-03-01 19:48:26,19.95,73.8333,72.05,29,0,2.68
222,Turbat,PK,2022-03-01 19:48:27,26.0023,63.044,71.8,70,12,5.48
223,Hambantota,LK,2022-03-01 19:48:27,6.1241,81.1185,77.11,72,100,14.5
224,Praia Da Vitoria,PT,2022-03-01 19:48:28,38.7333,-27.0667,64.65,77,40,20.8
225,Mariental,NA,2022-03-01 19:48:28,-24.6333,17.9667,81.99,10,54,13.8
226,Anloga,GH,2022-03-01 19:48:28,5.7947,0.8973,84.42,84,90,11.52
227,Souillac,MU,2022-03-01 19:48:29,-20.5167,57.5167,81.36,83,75,11.5
228,Havelock,US,2022-03-01 19:48:29,34.8791,-76.9013,67.98,61,75,6.91
229,Waingapu,ID,2022-03-01 19:48:29,-9.6567,120.2641,78.15,88,100,9.51
230,Luau,AO,2022-03-01 19:49:30,-10.7073,22.2247,65.14,98,96,4.43
231,Bathsheba,BB,2022-03-01 19:49:30,13.2167,-59.5167,84.81,65,20,19.57
232,Sombrio,BR,2022-03-01 19:49:31,-29.1139,-49.6167,74.93,82,100,8.99
233,Atherton,GB,2022-03-01 19:49:31,53.5237,-2.4935,44.74,78,41,3.0
234,Berlevag,NO,2022-03-01 19:47:53,70.8578,29.0864,35.6,93,75,20.71
235,Kavieng,PG,2022-03-01 19:49:32,-2.5744,150.7967,79.34,84,100,10.71
236,Pacific Grove,US,2022-03-01 19:45:46,36.6177,-121.9166,74.8,55,0,5.99
237,Anito,PH,2022-03-01 19:49:32,12.4497,125.2886,78.13,89,88,9.44
238,Charters Towers,AU,2022-03-01 19:49:33,-20.1,146.2667,78.33,73,79,7.87
239,Mpika,ZM,2022-03-01 19:49:33,-11.8343,31.4529,63.57,96,100,2.06
240,Flinders,AU,2022-03-01 19:49:33,-34.5833,150.8552,69.21,93,100,8.01
241,Kavaratti,IN,2022-03-01 19:49:34,10.5669,72.642,81.39,67,76,9.17
242,Andenes,NO,2022-03-01 19:49:35,69.3143,16.1194,36.37,87,40,21.85
243,Bowen,AU,2022-03-01 19:49:35,-20.0167,148.2333,79.02,88,98,9.04
244,Ulaanbaatar,MN,2022-03-01 19:45:31,47.9077,106.8832,-3.87,71,0,2.24
245,Tazovskiy,RU,2022-03-01 19:49:35,67.4667,78.7,6.91,91,100,22.59
246,Muros,ES,2022-03-01 19:49:36,42.7762,-9.0603,55.24,83,11,14.58
247,Constitucion,CL,2022-03-01 19:46:01,-35.3333,-72.4167,71.08,54,3,19.98
248,Mwinilunga,ZM,2022-03-01 19:49:37,-11.7358,24.4293,66.13,87,95,3.02
249,Santa Fe,AR,2022-03-01 19:49:37,-31.6333,-60.7,88.02,26,0,5.99
250,Palmer,US,2022-03-01 19:49:37,42.1584,-72.3287,40.98,54,100,13.8
251,Sisimiut,GL,2022-03-01 19:49:38,66.9395,-53.6735,-3.55,94,14,2.35
252,Beringovskiy,RU,2022-03-01 19:49:38,63.05,179.3167,22.3,96,100,5.91
253,Cape Town,ZA,2022-03-01 19:47:55,-33.9258,18.4232,68.11,89,75,12.66
254,Lebyazhye,RU,2022-03-01 19:49:39,55.2689,66.4947,17.24,96,82,8.25
255,Rocha,UY,2022-03-01 19:45:55,-34.4833,-54.3333,77.09,35,0,1.77
256,Olinda,BR,2022-03-01 19:49:39,-8.0089,-34.8553,85.73,62,40,11.5
257,Lavrentiya,RU,2022-03-01 19:49:40,65.5833,-171.0,13.03,99,98,3.38
258,Saskylakh,RU,2022-03-01 19:49:40,71.9167,114.0833,-35.09,100,63,4.68
259,Naze,JP,2022-03-01 19:47:16,28.3667,129.4833,59.5,76,97,7.96
260,Airai,TL,2022-03-01 19:49:41,-8.9266,125.4092,59.77,83,53,1.99
261,Hervey Bay,AU,2022-03-01 19:49:41,-25.2986,152.8535,75.31,93,56,5.99
262,Mogadishu,SO,2022-03-01 19:49:41,2.0371,45.3438,78.73,80,4,20.02
263,Batagay,RU,2022-03-01 19:49:42,67.6333,134.6333,-28.03,100,96,2.33
264,Teguise,ES,2022-03-01 19:49:42,29.0605,-13.564,61.02,77,20,21.85
265,Cape Canaveral,US,2022-03-01 19:49:43,28.4058,-80.6048,75.25,69,20,17.27
266,Cidreira,BR,2022-03-01 19:49:43,-30.1811,-50.2056,74.57,73,97,10.92
267,Namatanai,PG,2022-03-01 19:49:43,-3.6667,152.4333,78.4,85,100,5.28
268,Saint-Francois,FR,2022-03-01 19:49:44,46.4154,3.9054,47.64,57,0,4.61
269,Christchurch,NZ,2022-03-01 19:49:44,-43.5333,172.6333,55.94,83,100,9.22
270,Mackay,AU,2022-03-01 19:47:28,-21.15,149.2,80.58,94,47,4.61
271,Port Macquarie,AU,2022-03-01 19:47:48,-31.4333,152.9167,69.69,100,75,5.75
272,Vangaindrano,MG,2022-03-01 19:49:45,-23.35,47.6,74.79,94,73,2.44
273,Lodja,CD,2022-03-01 19:49:45,-3.4833,23.4333,70.74,99,100,2.39
274,Ponta Do Sol,PT,2022-03-01 19:49:46,32.6667,-17.1,66.0,79,94,2.62
275,Norman Wells,CA,2022-03-01 19:49:46,65.282,-126.8329,-0.36,60,20,26.46
276,Sao Jose Da Coroa Grande,BR,2022-03-01 19:49:47,-8.8978,-35.1478,82.22,68,100,9.95
277,Vostok,RU,2022-03-01 19:49:47,46.4856,135.8833,3.4,99,92,4.34
278,Caconda,AO,2022-03-01 19:49:47,-13.7333,15.0667,62.55,93,100,4.41
279,Ouallam,NE,2022-03-01 19:50:48,14.3188,2.0866,86.32,10,100,5.28
280,Upata,VE,2022-03-01 19:50:48,8.0086,-62.3989,87.19,49,67,6.44
281,Mahanoro,MG,2022-03-01 19:50:49,-19.9,48.8,77.68,86,100,5.57
282,Tilichiki,RU,2022-03-01 19:50:49,60.4667,166.1,23.02,88,100,16.06
283,Marsh Harbour,BS,2022-03-01 19:50:50,26.5412,-77.0636,74.1,70,16,10.98
284,Mutoko,ZW,2022-03-01 19:50:50,-17.397,32.2268,64.9,80,52,5.59
285,Sol-Iletsk,RU,2022-03-01 19:50:50,51.1631,54.9918,12.2,98,18,3.31
286,Jiazi,CN,2022-03-01 19:50:51,22.8779,116.067,68.63,84,66,3.78
287,Sagua La Grande,CU,2022-03-01 19:50:51,22.8067,-80.0756,79.02,61,50,11.79
288,Nelson Bay,AU,2022-03-01 19:50:52,-32.7167,152.15,69.96,96,99,1.01
289,Kharitonovo,RU,2022-03-01 19:50:52,61.4009,47.4978,29.44,90,98,8.61
290,Chiredzi,ZW,2022-03-01 19:50:52,-21.05,31.6667,77.77,49,4,6.46
291,Sabha,LY,2022-03-01 19:50:53,27.0377,14.4283,74.08,10,100,7.27
292,Karwar,IN,2022-03-01 19:50:53,14.8,74.1333,74.75,67,4,4.18
293,Chemin Grenier,MU,2022-03-01 19:50:54,-20.4872,57.4656,80.56,89,97,8.9
294,Lompoc,US,2022-03-01 19:50:54,34.6391,-120.4579,85.14,41,75,3.44
295,Aban,RU,2022-03-01 19:50:54,56.67,96.06,23.43,84,100,10.74
296,Bicas,BR,2022-03-01 19:50:55,-21.7253,-43.0594,78.71,77,0,4.85
297,Byron Bay,AU,2022-03-01 19:50:55,-28.65,153.6167,69.91,94,34,7.87
298,Ola,RU,2022-03-01 19:50:56,59.5833,151.2833,-9.09,87,69,10.0
299,Esperance,AU,2022-03-01 19:50:56,-33.8667,121.9,69.64,78,100,14.83
300,Tias,ES,2022-03-01 19:50:56,28.9611,-13.645,64.15,77,20,21.85
301,Elko,US,2022-03-01 19:50:57,41.0002,-115.5012,55.06,38,65,5.99
302,Yumen,CN,2022-03-01 19:50:57,40.2833,97.2,30.42,37,0,14.67
303,Dimitrovgrad,RU,2022-03-01 19:50:58,54.2139,49.6184,23.05,98,43,2.46
304,Jablonec Nad Jizerou,CZ,2022-03-01 19:50:58,50.7035,15.4296,32.77,72,3,2.28
305,Fort-De-France,MQ,2022-03-01 19:50:59,14.6089,-61.0733,84.22,41,75,19.57
306,Abu Samrah,SY,2022-03-01 19:50:59,35.3029,37.1841,51.89,83,63,12.93
307,Goderich,CA,2022-03-01 19:50:59,43.7501,-81.7165,37.2,80,100,8.05
308,Maningrida,AU,2022-03-01 19:51:00,-12.0667,134.2667,77.77,88,71,8.99
309,Broome,US,2022-03-01 19:51:00,42.2506,-75.833,45.63,64,100,9.22
310,Beyneu,KZ,2022-03-01 19:51:01,45.3167,55.2,47.5,65,99,3.51
311,Galveston,US,2022-03-01 19:51:01,29.3669,-94.9669,72.19,37,0,8.05
312,Salalah,OM,2022-03-01 19:51:01,17.0151,54.0924,73.15,70,0,2.08
313,Bonfim,BR,2022-03-01 19:51:02,3.0833,-59.95,89.82,46,97,11.27
314,Faanui,PF,2022-03-01 19:51:02,-16.4833,-151.75,81.93,73,32,15.99
315,Tornio,FI,2022-03-01 19:51:03,65.8481,24.1466,33.82,84,10,16.67
316,Komsomolskiy,UZ,2022-03-01 19:51:03,40.4272,71.7189,48.92,66,75,4.61
317,Carbonia,IT,2022-03-01 19:51:04,39.1672,8.5222,48.85,86,30,3.6
318,Coihaique,CL,2022-03-01 19:48:23,-45.5752,-72.0662,65.01,42,40,12.66
319,Geraldton,AU,2022-03-01 19:51:05,-28.7667,114.6,68.41,68,75,10.36
320,Beinamar,TD,2022-03-01 19:51:05,8.6698,15.3813,85.71,12,12,5.12
321,Yar-Sale,RU,2022-03-01 19:51:05,66.8333,70.8333,0.5,86,7,19.44
322,Sterling,US,2022-03-01 19:51:06,39.0062,-77.4286,58.05,52,75,10.36
323,Lusambo,CD,2022-03-01 19:51:06,-4.9667,23.45,70.14,98,40,1.81
324,Ust-Maya,RU,2022-03-01 19:52:07,60.4167,134.5333,-21.05,100,93,1.59
325,Atambua,ID,2022-03-01 19:52:07,-9.1061,124.8925,73.38,87,99,0.92
326,Ixtapa,MX,2022-03-01 19:52:07,20.7,-105.2,87.69,32,7,8.86
327,Manado,ID,2022-03-01 19:52:08,1.487,124.8455,74.17,100,40,2.3
328,Sobolevo,RU,2022-03-01 19:52:08,54.4299,31.8996,16.34,94,66,2.82
329,Maracacume,BR,2022-03-01 19:52:09,-2.0428,-45.9592,78.76,88,97,4.41
330,Vestmannaeyjar,IS,2022-03-01 19:52:09,63.4427,-20.2734,38.71,64,100,22.28
331,Raymond,US,2022-03-01 19:52:10,43.9015,-70.4703,32.52,58,100,10.09
332,Clinton,US,2022-03-01 19:48:47,42.587,-82.9199,50.32,53,75,17.27
333,Copiapo,CL,2022-03-01 19:52:10,-27.3667,-70.3333,69.49,42,0,8.95
334,Nan,TH,2022-03-01 19:52:10,18.8333,100.6667,71.15,49,92,1.61
335,Port-Gentil,GA,2022-03-01 19:52:11,-0.7193,8.7815,82.35,78,100,8.25
336,Hayrabolu,TR,2022-03-01 19:52:11,41.2131,27.1069,33.26,90,31,6.15
337,Roald,NO,2022-03-01 19:52:12,62.5833,6.1333,43.32,81,75,26.46
338,Methoni,GR,2022-03-01 19:52:12,36.8197,21.7049,49.21,72,70,1.61
339,Andros Town,BS,2022-03-01 19:52:13,24.7,-77.7667,78.76,61,0,11.43
340,Batagay-Alyta,RU,2022-03-01 19:52:13,67.8006,130.4114,-26.93,95,89,4.68
341,Nouadhibou,MR,2022-03-01 19:52:13,20.931,-17.0347,67.98,77,0,21.85
342,Atar,MR,2022-03-01 19:52:14,20.5169,-13.0499,75.52,28,0,8.79
343,Steamboat Springs,US,2022-03-01 19:50:18,40.485,-106.8317,48.0,53,0,4.61
344,Noumea,NC,2022-03-01 19:52:14,-22.2763,166.4572,81.0,99,100,18.16
345,Esparta,HN,2022-03-01 19:52:15,15.7437,-87.1766,84.99,80,78,5.39
346,Nishihara,JP,2022-03-01 19:52:15,26.1842,127.7558,67.28,97,75,9.22
347,El Alto,PE,2022-03-01 19:48:52,-4.2714,-81.2147,85.66,65,69,11.83
348,Kovur,IN,2022-03-01 19:52:16,14.4833,79.9833,70.66,74,25,7.74
349,Ambon,ID,2022-03-01 19:52:16,-3.6954,128.1814,75.34,94,20,1.14
350,Xingyi,CN,2022-03-01 19:52:17,24.1877,102.817,46.98,62,6,2.21
351,Touros,BR,2022-03-01 19:48:28,-5.1989,-35.4608,88.7,69,6,15.03
352,Pangnirtung,CA,2022-03-01 19:52:17,66.1451,-65.7125,-14.8,76,75,2.3
353,Manbij,SY,2022-03-01 19:52:18,36.5281,37.9549,52.57,87,100,3.29
354,Taltal,CL,2022-03-01 19:52:18,-25.4,-70.4833,70.16,69,6,5.95
355,Pevek,RU,2022-03-01 19:52:18,69.7008,170.3133,-14.19,100,95,3.49
356,Bilma,NE,2022-03-01 19:52:19,18.6853,12.9164,77.36,8,0,6.58
357,Grenada,ES,2022-03-01 19:52:19,37.1882,-3.6067,55.11,61,0,4.61
358,Padilla,CO,2022-03-01 19:52:20,3.2204,-76.3139,81.9,75,89,0.94
359,Megion,RU,2022-03-01 19:52:20,61.0296,76.1136,15.82,86,100,22.1
360,Sainte-Maxime,FR,2022-03-01 19:52:20,43.3,6.6333,47.93,76,78,2.42
361,Evensk,RU,2022-03-01 19:52:21,61.95,159.2333,0.93,80,100,12.39
362,Kadipur,IN,2022-03-01 19:52:21,26.1667,82.3833,59.23,52,0,4.25
363,Jacareacanga,BR,2022-03-01 19:51:38,-6.2222,-57.7528,79.79,87,60,4.83
364,Shunyi,CN,2022-03-01 19:52:22,40.125,116.6453,24.75,68,0,2.24
365,Naberera,TZ,2022-03-01 19:52:23,-4.2,36.9333,67.53,55,92,11.36
366,Port-Cartier,CA,2022-03-01 19:52:23,50.0334,-66.8654,12.74,80,90,4.47
367,San Cristobal,VE,2022-03-01 19:51:06,7.7669,-72.225,86.18,44,65,6.31
368,Fraserburgh,GB,2022-03-01 19:52:24,57.6874,-2.0184,41.72,67,33,8.93
369,Srednekolymsk,RU,2022-03-01 19:52:24,67.45,153.6833,-10.93,99,94,8.03
370,Port Lincoln,AU,2022-03-01 19:53:24,-34.7333,135.8667,62.73,91,1,4.0
371,Ontario,US,2022-03-01 19:52:52,34.0633,-117.6509,88.11,11,0,12.66
372,Ochakiv,UA,2022-03-01 19:53:25,46.6128,31.5498,35.29,97,100,18.75
373,Huarmey,PE,2022-03-01 19:53:25,-10.0681,-78.1522,77.7,70,38,10.85
374,Grand Gaube,MU,2022-03-01 19:53:26,-20.0064,57.6608,81.37,81,33,7.0
375,Daoukro,CI,2022-03-01 19:53:26,7.0591,-3.9631,77.81,76,98,2.26
376,Humaita,BR,2022-03-01 19:53:27,-7.5061,-63.0208,88.05,57,77,3.42
377,Uyuni,BO,2022-03-01 19:53:27,-20.4597,-66.825,62.31,40,96,10.33
378,Kjollefjord,NO,2022-03-01 19:53:27,70.9457,27.3465,37.45,93,75,14.97
379,Show Low,US,2022-03-01 19:51:08,34.2542,-110.0298,61.48,27,0,6.91
380,Avera,US,2022-03-01 19:52:25,33.194,-82.5271,70.45,31,0,4.5
381,Kampot,KH,2022-03-01 19:53:28,10.6167,104.1833,80.65,71,24,2.06
382,Ahuimanu,US,2022-03-01 19:53:29,21.4447,-157.8378,78.46,73,1,4.0
383,Ponoka,CA,2022-03-01 19:49:41,52.6768,-113.5815,23.88,90,97,6.17
384,Tucuman,AR,2022-03-01 19:50:15,-26.8241,-65.2226,71.6,73,100,1.14
385,Buraydah,SA,2022-03-01 19:52:18,26.326,43.975,70.25,25,0,14.23
386,Kaitangata,NZ,2022-03-01 19:53:30,-46.2817,169.8464,51.93,73,12,2.51
387,Nampula,MZ,2022-03-01 19:53:30,-15.1165,39.2666,76.95,73,75,10.36
388,Aksu,CN,2022-03-01 19:53:30,41.1231,80.2644,37.49,41,58,3.94
389,Petropavlovsk-Kamchatskiy,RU,2022-03-01 19:53:31,53.0452,158.6483,12.79,44,0,11.18
390,Husavik,IS,2022-03-01 19:53:31,66.0449,-17.3389,28.31,81,75,4.16
391,Lubao,PH,2022-03-01 19:53:32,14.9167,120.55,77.14,83,59,4.63
392,Kasama,ZM,2022-03-01 19:49:29,-10.2129,31.1808,63.32,96,100,4.03
393,Bairiki,KI,2022-03-01 19:52:23,1.3292,172.9752,80.6,83,0,0.0
394,Vanimo,PG,2022-03-01 19:53:33,-2.6741,141.3028,76.44,86,99,3.33
395,Ponta Delgada,PT,2022-03-01 19:53:33,37.7333,-25.6667,65.5,88,75,16.11
396,Margate,GB,2022-03-01 19:53:33,51.3813,1.3862,46.31,94,100,1.99
397,Borodino,RU,2022-03-01 19:53:34,55.9106,94.8983,26.82,69,97,16.46
398,Ginda,IN,2022-03-01 19:53:34,30.6945,78.4932,40.5,59,0,9.04
399,Miles City,US,2022-03-01 19:53:35,46.4083,-105.8406,55.51,55,96,18.5
400,Jonkoping,SE,2022-03-01 19:53:35,57.7814,14.1562,35.91,80,100,5.75
401,Puro,PH,2022-03-01 19:53:35,12.4841,123.3827,77.07,91,60,7.78
402,Lagoa,PT,2022-03-01 19:53:36,39.05,-27.9833,61.75,83,100,30.02
403,Aklavik,CA,2022-03-01 19:53:36,68.2191,-135.0107,-4.97,70,0,11.5
404,Yerofey Pavlovich,RU,2022-03-01 19:53:37,53.9667,121.9667,-0.2,93,100,4.09
405,Provideniya,RU,2022-03-01 19:53:37,64.3833,-173.3,17.78,95,83,8.14
406,Honiara,SB,2022-03-01 19:50:47,-9.4333,159.95,77.76,83,99,1.66
407,Kutum,SD,2022-03-01 19:53:38,14.2,24.6667,69.06,9,28,7.47
408,Magadan,RU,2022-03-01 19:53:38,59.5667,150.8,-8.0,79,55,9.37
409,Narsaq,GL,2022-03-01 19:53:38,60.9167,-46.05,30.38,46,100,24.67
410,Kirakira,SB,2022-03-01 19:53:40,-10.4544,161.9205,80.42,80,86,3.94
411,Thessalon,CA,2022-03-01 19:53:40,46.2501,-83.5666,29.16,82,100,11.88
412,Katherine,AU,2022-03-01 19:53:41,-14.4667,132.2667,79.12,78,40,6.91
413,Codajas,BR,2022-03-01 19:53:42,-3.8367,-62.0569,76.64,96,99,0.67
414,Mezen,RU,2022-03-01 19:54:42,65.8522,44.24,28.31,94,100,9.64
415,Karak,JO,2022-03-01 19:54:42,31.1667,35.75,52.52,55,100,1.95
416,Baruun-Urt,MN,2022-03-01 19:54:43,46.6806,113.2792,8.38,82,83,5.23
417,Lensk,RU,2022-03-01 19:54:43,60.7253,114.9278,-2.69,100,85,3.56
418,Ballina,AU,2022-03-01 19:54:44,-28.8667,153.5667,69.98,96,73,8.05
419,Bac Lieu,VN,2022-03-01 19:54:44,9.285,105.7244,79.47,77,100,15.05
420,Bafoulabe,ML,2022-03-01 19:54:44,13.8065,-10.8321,89.24,16,2,6.02
421,Mbaiki,CF,2022-03-01 19:54:45,3.8678,17.9892,79.77,51,94,2.84
422,Ouahigouya,BF,2022-03-01 19:54:45,13.5828,-2.4216,84.36,43,100,4.81
423,Purgstall,AT,2022-03-01 19:54:45,48.0584,15.1348,32.81,63,6,2.24
424,Lima,PE,2022-03-01 19:53:56,-12.0432,-77.0282,75.45,65,0,10.36
425,Yuanping,CN,2022-03-01 19:54:46,38.7153,112.7575,29.7,36,0,0.36
426,Xam Nua,LA,2022-03-01 19:54:46,20.4197,104.0439,60.96,96,98,2.82
427,Palauig,PH,2022-03-01 19:54:47,15.435,119.9045,77.43,65,97,4.05
428,Grong,NO,2022-03-01 19:54:47,64.4654,12.3149,38.62,87,100,22.57
429,Port Elizabeth,ZA,2022-03-01 19:51:25,-33.918,25.5701,70.11,94,75,16.11
430,Ituverava,BR,2022-03-01 19:54:48,-20.3394,-47.7806,90.12,62,27,3.02
431,Pasighat,IN,2022-03-01 19:54:48,28.0667,95.3333,61.81,64,61,4.12
432,Villa Carlos Paz,AR,2022-03-01 19:54:49,-31.4241,-64.4978,85.06,40,0,8.05
433,Lamu,KE,2022-03-01 19:54:49,-2.2717,40.902,79.02,82,100,14.54
434,Lincoln,US,2022-03-01 19:52:01,40.8,-96.667,76.14,34,0,10.36
435,Dahuk,IQ,2022-03-01 19:54:50,36.8695,42.994,52.36,69,100,5.35
436,Machiques,VE,2022-03-01 19:54:50,10.0644,-72.545,93.72,43,60,8.86
437,Ambanja,MG,2022-03-01 19:54:51,-13.6833,48.45,75.0,93,74,3.4
438,Turku,FI,2022-03-01 19:54:51,60.4515,22.2687,35.22,86,100,10.36
439,Maceio,BR,2022-03-01 19:54:06,-9.6658,-35.7353,85.44,61,40,13.8
440,Lashio,MM,2022-03-01 19:54:52,22.9333,97.75,53.4,48,35,2.04
441,Gat,IL,2022-03-01 19:51:01,31.61,34.7642,59.68,100,99,6.8
442,Mercedes,AR,2022-03-01 19:54:52,-34.6515,-59.4307,80.51,37,0,12.48
443,Karpathos,GR,2022-03-01 19:54:53,35.507,27.2132,53.56,87,100,5.75
444,Bagdarin,RU,2022-03-01 19:54:53,54.4333,113.6,-6.79,93,43,4.38
445,Kuusamo,FI,2022-03-01 19:54:54,65.9667,29.1833,32.04,80,75,18.41
446,Pontianak,ID,2022-03-01 19:54:54,-0.0333,109.3333,76.98,94,100,1.14
447,Hobyo,SO,2022-03-01 19:54:54,5.3505,48.5268,78.31,80,38,18.59
448,Raga,SS,2022-03-01 19:54:55,8.4596,25.678,78.31,18,78,1.01
449,Krasnik,PL,2022-03-01 19:54:55,50.9236,22.2271,32.7,58,100,5.79
450,Puerto Baquerizo Moreno,EC,2022-03-01 19:54:56,-0.9,-89.6,76.19,94,75,2.3
451,Menongue,AO,2022-03-01 19:54:56,-14.6585,17.691,63.99,95,92,4.99
452,Codrington,AU,2022-03-01 19:54:56,-38.2667,141.9667,63.91,96,99,7.96
453,Porto Velho,BR,2022-03-01 19:54:57,-8.7619,-63.9039,91.45,52,40,3.44
454,Jinchang,CN,2022-03-01 19:54:57,38.4953,102.1739,32.59,39,41,6.44
455,Cayenne,GF,2022-03-01 19:54:58,4.9333,-52.3333,82.44,88,100,10.36
456,Ipswich,GB,2022-03-01 19:54:58,52.0592,1.1555,45.59,93,100,11.77
457,Kem,RU,2022-03-01 19:54:58,64.9555,34.5793,34.99,84,99,18.68
458,Lahaina,US,2022-03-01 19:54:59,20.8783,-156.6825,79.84,83,1,1.72
459,Moshenskoye,RU,2022-03-01 19:54:59,58.5102,34.5911,16.65,95,36,4.25
460,Bombay,IN,2022-03-01 19:51:51,19.0144,72.8479,78.78,57,0,0.0
461,Lyngseidet,NO,2022-03-01 19:56:00,69.5763,20.2189,37.49,90,100,13.8
462,Pathein,MM,2022-03-01 19:56:00,16.7833,94.7333,72.52,64,10,6.6
463,Ouesso,CG,2022-03-01 19:56:01,1.6136,16.0517,74.89,86,100,5.95
464,Boguchany,RU,2022-03-01 19:56:01,58.3814,97.4531,23.34,93,100,9.82
465,Northam,GB,2022-03-01 19:56:02,51.0333,-4.2167,47.48,95,100,17.58
466,Mae Hong Son,TH,2022-03-01 19:56:02,19.3003,97.9685,66.29,38,99,2.08
467,Qandala,SO,2022-03-01 19:56:02,11.472,49.8728,76.19,77,9,3.67
468,Szczytno,PL,2022-03-01 19:56:03,53.5626,20.9875,22.93,74,0,0.0
469,Okhotsk,RU,2022-03-01 19:56:03,59.3833,143.3,1.96,98,100,2.01
470,San Pedro,PH,2022-03-01 19:56:04,14.35,121.0167,76.35,74,20,3.44
471,Severnyy,RU,2022-03-01 19:56:04,50.677,36.5532,32.04,100,100,8.95
472,Sinazongwe,ZM,2022-03-01 19:56:05,-17.2614,27.4618,77.77,63,7,3.49
473,Tumba,SE,2022-03-01 19:56:05,59.1986,17.8332,38.28,74,75,8.05
474,Millau,FR,2022-03-01 19:56:05,44.0833,2.9167,44.38,96,56,5.26
475,Palmdale,US,2022-03-01 19:55:26,34.5794,-118.1165,82.18,16,0,7.0
476,Cap Malheureux,MU,2022-03-01 19:56:06,-19.9842,57.6142,81.46,81,34,8.99
477,Mahibadhoo,MV,2022-03-01 19:56:06,3.7833,72.9667,82.81,70,58,12.93
478,Karlskrona,SE,2022-03-01 19:56:07,56.1616,15.5866,30.65,76,100,7.63
479,Nola,IT,2022-03-01 19:56:07,40.922,14.5329,43.23,99,6,6.24
480,Twentynine Palms,US,2022-03-01 19:51:20,34.1356,-116.0542,83.39,7,0,4.0
481,Whitehorse,CA,2022-03-01 19:56:08,60.7161,-135.0538,28.09,80,100,2.3
482,Koltsovo,RU,2022-03-01 19:56:08,54.9376,83.1825,18.82,86,100,4.0
483,Poum,NC,2022-03-01 19:56:09,-20.2333,164.0167,82.4,76,100,13.13
484,Dubbo,AU,2022-03-01 19:56:09,-32.25,148.6167,64.53,88,51,9.22
485,Nedjo,ET,2022-03-01 19:56:10,9.5046,35.5019,66.87,60,100,3.18
486,Iquitos,PE,2022-03-01 19:52:56,-3.7481,-73.2472,89.64,58,75,5.75
487,Meadow Lake,US,2022-03-01 19:56:10,34.8014,-106.5436,68.77,14,93,4.68
488,Rawson,AR,2022-03-01 19:56:11,-43.3002,-65.1023,81.09,24,4,22.62
489,Mucuri,BR,2022-03-01 19:56:11,-18.0864,-39.5508,81.03,70,10,13.51
490,Rio Grande,BR,2022-03-01 19:53:50,-32.035,-52.0986,82.51,54,0,10.96
491,Carbonear,CA,2022-03-01 19:56:12,47.7332,-53.2148,22.42,55,71,17.56
492,Zhezkazgan,KZ,2022-03-01 19:56:12,47.8043,67.7144,4.21,87,5,5.55
493,Alugan,PH,2022-03-01 19:56:13,12.2188,125.4808,79.48,84,60,11.14
494,Ust-Nera,RU,2022-03-01 19:56:13,64.5667,143.2,-22.45,100,99,2.98
495,Jardim,BR,2022-03-01 19:56:13,-21.4803,-56.1381,76.17,85,99,5.1
496,Palmeirais,BR,2022-03-01 19:56:14,-5.9778,-43.0633,80.33,83,100,3.94
497,Ayagoz,KZ,2022-03-01 19:56:14,47.9714,80.4392,11.61,99,92,7.54
498,Portree,GB,2022-03-01 19:56:15,57.4129,-6.1942,39.85,85,45,5.19
499,Safaga,EG,2022-03-01 19:56:15,26.7292,33.9365,67.95,42,25,7.61
500,Gumia,IN,2022-03-01 19:56:16,23.7833,85.8167,68.61,40,18,3.56
501,Suzun,RU,2022-03-01 19:56:16,53.7841,82.3116,17.64,93,100,11.63
502,Aitape,PG,2022-03-01 19:56:16,-3.1374,142.3475,76.3,85,100,2.77
503,Challapata,BO,2022-03-01 19:56:17,-18.9,-66.7667,61.05,40,95,9.95
504,Jucas,BR,2022-03-01 19:56:17,-6.5253,-39.5275,90.48,33,99,6.02
505,Buala,SB,2022-03-01 19:56:18,-8.145,159.5921,80.13,81,99,3.67
506,Vila Franca Do Campo,PT,2022-03-01 19:57:18,37.7167,-25.4333,65.19,92,100,12.71
507,Loukhi,RU,2022-03-01 19:57:19,66.0764,33.0381,33.75,87,100,16.49
508,Atchison,US,2022-03-01 19:57:19,39.563,-95.1216,75.15,22,0,9.04
509,Walvis Bay,NA,2022-03-01 19:57:20,-22.9575,14.5053,63.09,69,0,16.02
510,Abu Kamal,SY,2022-03-01 19:57:20,34.4506,40.9171,63.57,38,100,5.17
511,Nyurba,RU,2022-03-01 19:57:21,63.2842,118.3319,-18.78,100,100,3.6
512,Vidim,RU,2022-03-01 19:57:21,56.4088,103.1106,15.12,93,100,9.46
513,Nanakuli,US,2022-03-01 19:57:21,21.3906,-158.1547,77.7,62,0,3.27
514,Cairns,AU,2022-03-01 19:57:22,-16.9167,145.7667,79.07,97,91,1.14
515,Yerbogachen,RU,2022-03-01 19:57:22,61.2767,108.0108,-6.84,100,100,4.61
516,Victoria,HK,2022-03-01 19:54:00,22.2855,114.1577,74.08,88,98,3.0
517,Keti Bandar,PK,2022-03-01 19:57:23,24.1447,67.4497,72.88,79,0,11.72
518,Zheleznogorsk,RU,2022-03-01 19:57:23,52.331,35.3711,31.8,97,100,8.46
519,Potam,MX,2022-03-01 19:57:24,27.6,-110.3833,80.92,13,67,10.47
520,Podgornoye,RU,2022-03-01 19:57:24,51.735,39.1496,34.02,93,100,6.71
521,Chlorakas,CY,2022-03-01 19:57:24,34.8042,32.4083,59.88,82,75,6.91
522,Tual,ID,2022-03-01 19:57:25,-5.6667,132.75,83.21,75,43,9.89
523,Gao,ML,2022-03-01 19:57:25,16.6362,1.637,85.91,11,98,4.61
524,Xiongzhou,CN,2022-03-01 19:57:26,25.1167,114.3,58.66,77,98,4.12
525,Purificacion,CO,2022-03-01 19:57:26,3.8587,-74.9313,87.4,58,62,2.35
526,Kaeo,NZ,2022-03-01 19:57:27,-35.1,173.7833,63.32,93,100,7.52
527,Matagami,CA,2022-03-01 19:57:27,49.7502,-77.6328,17.71,73,100,3.44
528,Nanortalik,GL,2022-03-01 19:57:27,60.1432,-45.2371,31.93,63,100,37.58
529,Hualmay,PE,2022-03-01 19:57:28,-11.0964,-77.6139,76.23,72,84,9.93
530,Arman,RU,2022-03-01 19:57:28,59.7,150.1667,-10.66,84,28,10.31
531,Hay River,CA,2022-03-01 19:56:34,60.8156,-115.7999,-22.02,69,20,6.91
532,Hovd,MN,2022-03-01 19:57:29,48.0056,91.6419,3.29,63,19,7.07
533,Bulgan,MN,2022-03-01 19:57:29,48.8125,103.5347,4.35,80,23,4.5
534,Ngunguru,NZ,2022-03-01 19:57:30,-35.6167,174.5,63.16,75,100,9.44
535,Abha,SA,2022-03-01 19:57:30,18.2164,42.5053,60.62,48,0,11.5
536,San Policarpo,PH,2022-03-01 19:57:30,12.1791,125.5072,80.04,83,51,12.08
537,North Bend,US,2022-03-01 19:57:31,43.4065,-124.2243,59.23,98,100,8.05
538,Kushima,JP,2022-03-01 19:57:31,31.4583,131.2333,51.58,80,93,8.7
539,Tabuk,PH,2022-03-01 19:57:32,17.4189,121.4443,66.2,88,62,3.65
540,Yulara,AU,2022-03-01 19:57:32,-25.2406,130.9889,80.44,34,16,8.05
541,Itacoatiara,BR,2022-03-01 19:57:32,-3.1431,-58.4442,82.24,87,90,2.33
542,Kailua,US,2022-03-01 19:57:33,21.4022,-157.7394,77.74,74,1,4.0
543,Ocean City,US,2022-03-01 19:56:20,39.2776,-74.5746,54.21,69,100,4.0
544,Pyu,MM,2022-03-01 19:57:33,18.4833,96.4333,70.65,34,31,4.99
545,Colares,PT,2022-03-01 19:57:34,38.7992,-9.4469,59.9,76,75,13.0
546,Lhokseumawe,ID,2022-03-01 19:57:34,5.1801,97.1507,76.53,88,97,4.68
547,Yeppoon,AU,2022-03-01 19:57:35,-23.1333,150.7333,78.58,89,0,3.89
548,Bambanglipuro,ID,2022-03-01 19:57:35,-7.95,110.2833,62.6,89,100,8.55
549,Haines Junction,CA,2022-03-01 19:57:35,60.7522,-137.5108,22.95,68,100,2.3
550,Jishou,CN,2022-03-01 19:57:36,28.3167,109.7167,44.4,86,0,1.3
551,Prince Rupert,CA,2022-03-01 19:58:36,54.3161,-130.3201,41.09,93,100,3.44
552,Tuatapere,NZ,2022-03-01 19:58:37,-46.1333,167.6833,47.82,84,13,4.47
553,Arlit,NE,2022-03-01 19:58:37,18.7369,7.3853,82.22,8,5,9.1
554,Gallup,US,2022-03-01 19:58:37,35.5281,-108.7426,55.02,22,37,4.0
555,Pangai,TO,2022-03-01 19:58:38,-19.8,-174.35,82.51,74,75,8.05
556,Requena,ES,2022-03-01 19:58:38,39.4883,-1.1004,48.49,66,26,4.14
557,Pitsunda,GE,2022-03-01 19:58:39,43.1592,40.3378,42.98,91,97,1.74
558,San Jose,US,2022-03-01 19:54:52,37.3394,-121.895,75.9,48,0,5.75
559,Road Town,VG,2022-03-01 19:58:39,18.4167,-64.6167,82.44,74,40,8.05
560,Alamosa,US,2022-03-01 19:58:39,37.4695,-105.87,51.31,20,0,5.35
561,Saint Anthony,US,2022-03-01 19:58:40,45.0205,-93.218,37.72,60,40,5.75
562,Piedras Negras,MX,2022-03-01 19:58:40,28.7,-100.5167,74.26,22,4,10.87
563,Tagbac,PH,2022-03-01 19:58:41,7.089,125.1567,70.12,92,64,3.62
564,Ciudad Bolivar,VE,2022-03-01 19:58:41,8.1222,-63.5497,96.04,32,24,7.58
565,Portland,US,2022-03-01 19:56:11,45.5234,-122.6762,59.09,91,100,11.01
566,Coxim,BR,2022-03-01 19:58:42,-18.5067,-54.76,81.9,77,100,4.05
567,Nantucket,US,2022-03-01 19:58:42,41.2835,-70.0995,38.08,69,100,22.15
568,Betare Oya,CM,2022-03-01 19:58:42,5.6,14.0833,79.23,19,100,2.84
569,Puerto Escondido,MX,2022-03-01 19:54:33,15.85,-97.0667,84.81,58,0,8.97
570,Leningradskiy,RU,2022-03-01 19:58:43,69.3833,178.4167,10.44,80,82,6.87
571,Khash,IR,2022-03-01 19:58:43,28.2211,61.2158,53.92,57,2,3.06
572,North Battleford,CA,2022-03-01 19:58:44,52.7834,-108.2847,17.69,86,75,4.61
573,Parfino,RU,2022-03-01 19:58:44,57.9731,31.6481,24.42,94,38,3.27
574,Acari,PE,2022-03-01 19:58:44,-15.4311,-74.6158,77.81,74,89,9.6
575,Juneau,US,2022-03-01 19:54:30,58.3019,-134.4197,39.22,97,100,3.44
576,Acarau,BR,2022-03-01 19:58:45,-2.8856,-40.12,83.03,72,100,16.02
577,Harper,LR,2022-03-01 19:58:45,4.375,-7.7169,80.83,83,72,10.09
